City_ID,City,Country,Lat,Lng,Max Temp,Humidity,Cloudiness,Wind Speed,Current Description
0,Khatanga,RU,71.9667,102.5,-26.05,100,100,4.47,overcast clouds
1,Saint-Philippe,RE,-21.3585,55.7679,80.19,89,100,11.86,light rain
2,Castro,BR,-24.7911,-50.0119,69.19,67,28,10.56,scattered clouds
3,Punta Arenas,CL,-53.15,-70.9167,57.31,54,75,31.07,broken clouds
4,Barrow,US,71.2906,-156.7887,-25.58,68,0,4.61,clear sky
5,North Bend,US,43.4065,-124.2243,51.08,96,100,9.22,mist
6,Touros,BR,-5.1989,-35.4608,83.57,69,71,11.52,moderate rain
7,Iskateley,RU,67.6803,53.1512,25.23,93,100,17.87,light snow
8,Ongandjera,NA,-17.8833,15.0667,80.13,51,95,11.03,light rain
9,Lavrentiya,RU,65.5833,-171.0,-2.79,92,100,2.15,overcast clouds
10,Karratha,AU,-20.7377,116.8463,85.6,69,100,19.82,overcast clouds
11,Upernavik,GL,72.7868,-56.1549,-12.62,71,84,5.35,broken clouds
12,Ribeira Grande,PT,38.5167,-28.7,59.4,58,75,20.71,broken clouds
13,East London,ZA,-33.0153,27.9116,72.54,78,0,6.91,clear sky
14,Bambous Virieux,MU,-20.3428,57.7575,80.85,94,75,6.91,broken clouds
15,Rikitea,PF,-23.1203,-134.9692,79.2,74,4,16.31,light rain
16,Mar Del Plata,AR,-38.0023,-57.5575,64.09,83,100,21.99,light rain
17,Kaitangata,NZ,-46.2817,169.8464,58.64,87,78,14.0,broken clouds
18,Inhambane,MZ,-23.865,35.3833,76.98,69,40,6.91,scattered clouds
19,Ushuaia,AR,-54.8,-68.3,53.26,66,75,9.22,broken clouds
20,Hilo,US,19.7297,-155.09,81.63,75,20,6.91,few clouds
21,Umba,RU,66.6871,34.3429,35.04,81,11,12.77,few clouds
22,Umm Kaddadah,SD,13.6017,26.6876,79.27,8,5,12.48,clear sky
23,Statesboro,US,32.4488,-81.7832,74.73,18,0,4.61,clear sky
24,Clyde River,CA,70.4692,-68.5914,-9.17,77,100,2.3,light snow
25,Porto Novo,BJ,6.4965,2.6036,85.82,75,100,6.55,light rain
26,Cidreira,BR,-30.1811,-50.2056,70.92,65,97,16.44,overcast clouds
27,Tasiilaq,GL,65.6145,-37.6368,17.76,64,0,4.81,clear sky
28,Christchurch,NZ,-43.5333,172.6333,61.0,94,75,16.11,mist
29,Korla,CN,41.7597,86.1469,40.59,82,13,5.1,few clouds
30,Mohgaon,IN,21.65,78.7167,83.79,15,74,3.74,broken clouds
31,Hami,CN,42.8,93.45,38.91,44,6,3.36,clear sky
32,Caninde De Sao Francisco,BR,-9.66,-37.7894,88.79,46,62,13.31,broken clouds
33,Lebu,CL,-37.6167,-73.65,61.05,74,26,10.45,scattered clouds
34,Bosobolo,CD,4.1833,19.9,82.4,45,4,3.51,clear sky
35,Lebork,PL,54.5392,17.7501,44.92,49,0,6.11,clear sky
36,Jamestown,US,42.097,-79.2353,58.51,30,0,14.97,clear sky
37,Hermanus,ZA,-34.4187,19.2345,69.8,80,13,12.64,few clouds
38,Saldanha,ZA,-33.0117,17.9442,66.25,87,0,20.94,clear sky
39,Deputatskiy,RU,69.3,139.9,-9.0,98,100,1.63,overcast clouds
40,Guarapari,BR,-20.6667,-40.4975,80.89,81,48,14.2,scattered clouds
41,Fort Nelson,CA,58.8053,-122.7002,17.19,67,20,2.3,few clouds
42,Mati,PH,6.9551,126.2166,74.53,90,78,3.65,broken clouds
43,Albany,US,42.6001,-73.9662,53.76,42,83,5.01,broken clouds
44,Champerico,GT,14.3,-91.9167,91.94,60,6,12.19,clear sky
45,Tuktoyaktuk,CA,69.4541,-133.0374,-22.0,76,20,4.61,few clouds
46,Tonshayevo,RU,57.736,47.0127,25.92,88,11,4.79,few clouds
47,Westport,US,41.1415,-73.3579,62.37,33,93,13.0,overcast clouds
48,Isangel,VU,-19.55,169.2667,79.02,88,100,8.68,overcast clouds
49,Thompson,CA,55.7435,-97.8558,32.16,47,100,5.75,overcast clouds
50,Mataura,NZ,-46.1927,168.8643,58.26,82,17,8.55,few clouds
51,Mahebourg,MU,-20.4081,57.7,80.89,94,75,6.91,broken clouds
52,Codrington,AU,-38.2667,141.9667,57.85,92,84,2.73,broken clouds
53,Sanchor,IN,24.7553,71.7722,75.67,20,0,9.98,clear sky
54,Luangwa,ZM,-15.6167,30.4167,69.89,78,2,1.92,clear sky
55,Longyearbyen,SJ,78.2186,15.6401,24.64,74,75,24.16,light shower snow
56,Bredasdorp,ZA,-34.5322,20.0403,68.59,84,0,8.61,clear sky
57,Arraial Do Cabo,BR,-22.9661,-42.0278,78.76,61,75,16.11,broken clouds
58,Pevek,RU,69.7008,170.3133,17.38,73,100,9.4,overcast clouds
59,Alekseyevsk,RU,57.8406,108.3492,23.29,96,100,6.91,light snow
60,Vanino,RU,49.0869,140.2543,11.52,86,18,6.11,few clouds
61,Lasa,IT,46.6166,10.7002,47.28,85,8,1.41,clear sky
62,Nikolskoye,RU,59.7035,30.7861,39.09,80,0,6.42,clear sky
63,Fortuna,US,40.5982,-124.1573,58.93,59,0,4.61,clear sky
64,Saskylakh,RU,71.9167,114.0833,-1.21,99,99,2.46,overcast clouds
65,Vaini,TO,-21.2,-175.2,81.23,79,100,16.11,light rain
66,Erzin,TR,36.9559,36.2,41.41,57,48,4.29,scattered clouds
67,Mogocha,RU,53.7333,119.7667,6.26,92,99,3.65,overcast clouds
68,Busselton,AU,-33.65,115.3333,56.37,88,0,10.92,clear sky
69,Cape Town,ZA,-33.9258,18.4232,68.41,79,20,17.27,few clouds
70,Fernandina Beach,US,30.6697,-81.4626,75.02,54,0,12.66,clear sky
71,New Norfolk,AU,-42.7826,147.0587,62.1,63,100,1.97,overcast clouds
72,Mujiayingzi,CN,42.1167,118.7833,24.1,59,0,6.06,clear sky
73,Geraldton,AU,-28.7667,114.6,64.81,82,6,9.22,clear sky
74,Yar-Sale,RU,66.8333,70.8333,-8.9,100,64,6.26,broken clouds
75,Paita,PE,-5.0892,-81.1144,80.96,61,59,13.78,broken clouds
76,College,US,64.8569,-147.8028,3.22,64,20,5.75,few clouds
77,Bethel,US,41.3712,-73.414,61.02,36,40,16.11,scattered clouds
78,Ahuimanu,US,21.4447,-157.8378,80.37,74,20,4.61,few clouds
79,Nanortalik,GL,60.1432,-45.2371,23.5,80,10,3.74,clear sky
80,Hanna,CA,51.6334,-111.9018,42.85,33,85,13.0,overcast clouds
81,Presidencia Roque Saenz Pena,AR,-26.7852,-60.4388,95.38,29,92,9.55,overcast clouds
82,Hithadhoo,MV,-0.6,73.0833,83.98,74,74,17.76,broken clouds
83,Leh,IN,34.1667,77.5833,18.46,69,23,2.95,few clouds
84,Butaritari,KI,3.0707,172.7902,80.44,79,94,15.05,light rain
85,Kapaa,US,22.0752,-159.319,76.19,92,0,10.36,clear sky
86,Broome,US,42.2506,-75.833,54.7,45,0,20.71,clear sky
87,Novikovo,RU,51.1537,37.8879,34.09,92,91,13.04,overcast clouds
88,Port Alfred,ZA,-33.5906,26.891,73.08,86,0,12.08,clear sky
89,Bengkulu,ID,-3.8004,102.2655,75.96,86,96,3.87,overcast clouds
90,Katsina,NG,12.9894,7.6006,90.14,11,100,7.87,overcast clouds
91,Marfino,RU,55.7028,37.3822,44.85,39,0,4.47,clear sky
92,Manggar,ID,-2.8833,108.2667,80.49,78,100,5.82,overcast clouds
93,Mount Isa,AU,-20.7333,139.5,69.57,64,5,1.14,light rain
94,Boma,GH,7.0805,-2.1697,80.22,75,100,2.04,light rain
95,Mitsamiouli,KM,-11.3847,43.2844,79.09,89,20,5.75,few clouds
96,Bluff,NZ,-46.6,168.3333,59.43,81,21,13.2,few clouds
97,Kodiak,US,57.79,-152.4072,36.91,60,0,13.8,clear sky
98,La Solana,ES,38.9442,-3.2381,50.2,82,100,2.71,overcast clouds
99,Kruisfontein,ZA,-34.0033,24.7314,65.88,91,0,6.49,clear sky
100,Aklavik,CA,68.2191,-135.0107,-5.96,88,100,2.08,overcast clouds
101,Mayna,RU,54.1135,47.6231,23.23,86,8,9.91,clear sky
102,Anchorage,US,61.2181,-149.9003,27.55,63,0,6.91,clear sky
103,Bereznik,RU,62.8551,42.7072,33.55,94,100,7.23,overcast clouds
104,Chuy,UY,-33.6971,-53.4616,71.56,47,11,18.34,few clouds
105,Razdolinsk,RU,58.4211,94.6658,14.65,98,100,3.94,overcast clouds
106,Puerto Ayora,EC,-0.7393,-90.3518,84.16,88,68,7.0,broken clouds
107,Esperance,AU,-33.8667,121.9,58.84,71,99,14.47,overcast clouds
108,Petropavlovsk-Kamchatskiy,RU,53.0452,158.6483,30.79,55,75,11.18,broken clouds
109,Slave Lake,CA,55.2834,-114.769,35.58,44,100,0.0,overcast clouds
110,Whitehorse,CA,60.7161,-135.0538,30.09,86,75,5.75,light snow
111,Loandjili,CG,-4.7561,11.8578,82.51,83,75,6.91,broken clouds
112,Hurricane,US,37.1753,-113.2899,57.87,21,63,13.27,broken clouds
113,Mehamn,NO,71.0357,27.8492,33.71,93,100,41.43,light shower snow
114,Alofi,NU,-19.0595,-169.9187,75.09,94,40,2.3,scattered clouds
115,Baiyin,CN,36.5583,104.2081,43.03,64,100,7.52,overcast clouds
116,Ixtapa,MX,20.7,-105.2,74.43,53,75,8.05,broken clouds
117,Byron Bay,AU,-28.65,153.6167,64.29,92,4,9.13,clear sky
118,Hobart,AU,-42.8794,147.3294,62.46,85,100,8.05,overcast clouds
119,Kaliua,TZ,-5.0606,31.7936,66.92,95,93,4.85,light rain
120,Avarua,CK,-21.2078,-159.775,80.65,78,40,8.05,scattered clouds
121,Provideniya,RU,64.3833,-173.3,6.89,87,38,1.41,scattered clouds
122,Jaswantnagar,IN,26.8786,78.9028,78.96,18,0,1.77,clear sky
123,Darhan,MN,49.4867,105.9228,20.82,39,0,7.09,clear sky
124,Lazaro Cardenas,MX,17.9583,-102.2,85.84,35,0,9.37,clear sky
125,Mount Gambier,AU,-37.8333,140.7667,53.51,100,40,3.44,scattered clouds
126,Samarai,PG,-10.6167,150.6667,83.05,76,8,9.13,clear sky
127,Vila Velha,BR,-20.3297,-40.2925,80.94,76,40,18.41,scattered clouds
128,Ahipara,NZ,-35.1667,173.1667,66.76,92,7,9.78,clear sky
129,Necochea,AR,-38.5473,-58.7368,62.67,64,100,17.94,light rain
130,Kuching,MY,1.55,110.3333,73.62,100,40,3.44,light rain
131,Lompoc,US,34.6391,-120.4579,78.57,52,0,15.99,clear sky
132,Dikson,RU,73.5069,80.5464,-1.71,99,100,7.92,overcast clouds
133,La Ronge,CA,55.1001,-105.2842,34.05,100,100,5.75,overcast clouds
134,Ipubi,BR,-7.6519,-40.1489,83.26,54,91,5.3,overcast clouds
135,Karasjok,NO,69.4719,25.5112,30.99,73,96,27.67,overcast clouds
136,Polson,US,47.6936,-114.1632,42.22,59,100,1.99,overcast clouds
137,Tiksi,RU,71.6872,128.8694,-17.73,99,64,1.14,broken clouds
138,Ostrovnoy,RU,68.0531,39.5131,35.26,75,95,28.32,overcast clouds
139,Freeport,US,40.6576,-73.5832,63.5,32,0,14.97,clear sky
140,Port Macquarie,AU,-31.4333,152.9167,56.89,85,22,7.38,few clouds
141,Vardo,NO,70.3705,31.1107,33.78,75,75,42.57,broken clouds
142,Ajdabiya,LY,30.7554,20.2263,55.51,47,96,19.75,overcast clouds
143,Aksaray,TR,38.3726,34.0254,25.74,74,7,7.58,clear sky
144,Poretskoye,RU,55.1974,46.3291,18.45,91,5,3.98,clear sky
145,Chavakkad,IN,10.5333,76.05,81.09,77,1,3.0,clear sky
146,Hualmay,PE,-11.0964,-77.6139,75.29,70,73,11.14,broken clouds
147,Puyo,EC,-1.4667,-77.9833,74.44,88,75,4.61,broken clouds
148,Sao Filipe,CV,14.8961,-24.4956,70.77,73,8,12.41,clear sky
149,Kulhudhuffushi,MV,6.6221,73.07,82.76,68,48,13.73,scattered clouds
150,Saint George,US,37.1041,-113.5841,59.79,17,0,10.36,clear sky
151,Olafsvik,IS,64.8945,-23.7142,32.31,94,100,19.22,light snow
152,Roma,US,43.2128,-75.4557,51.82,46,20,24.16,few clouds
153,Kamaishi,JP,39.2667,141.8833,32.7,67,100,3.56,overcast clouds
154,Labuhan,ID,-6.8844,112.2051,77.38,86,100,4.47,moderate rain
155,Grindavik,IS,63.8424,-22.4338,39.67,93,100,13.8,overcast clouds
156,Half Moon Bay,US,37.4636,-122.4286,69.1,57,0,17.27,haze
157,Chokurdakh,RU,70.6333,147.9167,-2.9,86,100,12.82,overcast clouds
158,Puerto Madryn,AR,-42.7692,-65.0385,69.28,44,99,24.25,overcast clouds
159,Qeshm,IR,26.9581,56.2719,75.07,67,0,5.01,clear sky
160,Hasaki,JP,35.7333,140.8333,45.0,86,100,12.88,moderate rain
161,Pisco,PE,-13.7,-76.2167,76.01,73,0,9.22,clear sky
162,Kahului,US,20.8947,-156.47,76.84,76,100,4.0,overcast clouds
163,Sao Joao Da Barra,BR,-21.6403,-41.0511,69.89,81,98,18.5,overcast clouds
164,Rudnogorsk,RU,57.2639,103.7519,11.41,97,100,4.07,overcast clouds
165,San Patricio,US,28.017,-97.5169,86.09,63,98,29.28,overcast clouds
166,Bitung,ID,1.4451,125.1824,76.05,87,99,7.72,overcast clouds
167,Myaundzha,RU,63.0494,147.1858,5.18,89,100,7.4,overcast clouds
168,Faanui,PF,-16.4833,-151.75,81.46,75,33,18.14,light rain
169,Homer,US,59.6425,-151.5483,33.76,60,0,8.01,clear sky
170,Tessalit,ML,20.1986,1.0114,79.34,9,0,10.63,clear sky
171,Guarda,PT,40.5373,-7.2658,43.9,95,100,2.01,overcast clouds
172,Sorland,NO,67.667,12.6934,39.06,61,53,3.96,broken clouds
173,Neiafu,TO,-18.65,-173.9833,82.72,78,100,20.98,overcast clouds
174,Ningxiang,CN,37.34,111.2052,39.13,81,100,6.46,overcast clouds
175,Tazovskiy,RU,67.4667,78.7,-12.98,100,24,5.48,few clouds
176,Carlet,ES,39.2333,-0.5167,57.31,96,100,13.0,moderate rain
177,Dingle,PH,10.9995,122.6711,76.53,89,100,6.62,overcast clouds
178,Pathein,MM,16.7833,94.7333,73.78,91,98,7.58,light rain
179,Yasnyy,RU,51.0333,59.8742,19.81,88,97,15.99,overcast clouds
180,Luang Prabang,LA,19.8856,102.1347,75.61,80,83,2.17,broken clouds
181,Nesbyen,NO,60.5681,9.1027,31.33,93,70,1.97,broken clouds
182,Cherskiy,RU,68.75,161.3,19.69,94,100,8.01,light snow
183,Lugovoy,KZ,42.9472,72.7644,33.53,98,100,5.7,snow
184,Lanxi,CN,29.2195,119.477,48.52,93,100,5.55,overcast clouds
185,Puri,IN,19.8,85.85,81.12,84,3,13.38,clear sky
186,Tautira,PF,-17.7333,-149.15,81.66,74,19,16.26,few clouds
187,Guapore,BR,-28.8456,-51.8903,76.71,42,1,6.89,clear sky
188,Georgetown,MY,5.4112,100.3354,78.75,87,20,2.3,few clouds
189,Ponta Do Sol,PT,32.6667,-17.1,64.71,71,100,7.54,overcast clouds
190,Ambon,ID,-3.6954,128.1814,77.14,94,40,4.61,scattered clouds
191,Coruripe,BR,-10.1256,-36.1756,83.97,64,28,11.72,scattered clouds
192,Moussoro,TD,13.6408,16.4901,90.68,12,100,11.34,overcast clouds
193,Klaksvik,FO,62.2266,-6.589,43.72,85,43,19.98,scattered clouds
194,Pringsewu,ID,-5.3582,104.9744,74.12,89,100,4.92,overcast clouds
195,Oussouye,SN,12.485,-16.5469,89.78,54,4,14.12,clear sky
196,Ust-Omchug,RU,61.15,149.6333,7.95,96,100,8.48,light snow
197,Okmulgee,US,35.6234,-95.9605,58.37,67,100,9.22,thunderstorm with rain
198,Ibicarai,BR,-14.865,-39.5875,78.96,75,100,5.75,overcast clouds
199,Beloha,MG,-25.1667,45.05,70.86,73,3,14.97,clear sky
200,Sioux Lookout,CA,50.1001,-91.917,39.27,41,75,11.5,broken clouds
201,Biltine,TD,14.5333,20.9167,86.43,7,0,8.77,clear sky
202,Mayor Pablo Lagerenza,PY,-19.9309,-60.7718,96.6,31,24,5.37,few clouds
203,Port Elizabeth,ZA,-33.918,25.5701,71.31,94,0,4.61,clear sky
204,Yumen,CN,40.2833,97.2,35.06,53,100,12.33,overcast clouds
205,Trincomalee,LK,8.5711,81.2335,78.76,85,70,8.7,broken clouds
206,Kwinana,AU,-32.25,115.7667,65.23,62,0,12.39,clear sky
207,Santa Maria,BR,-29.6842,-53.8069,78.1,53,20,13.8,few clouds
208,Airai,TL,-8.9266,125.4092,59.22,85,94,1.32,overcast clouds
209,Souillac,MU,-20.5167,57.5167,80.98,94,75,6.91,broken clouds
210,Lensk,RU,60.7253,114.9278,18.81,92,93,9.26,overcast clouds
211,Nakamura,JP,32.9833,132.9333,50.49,97,100,7.61,light rain
212,Kalmunai,LK,7.4167,81.8167,79.95,85,35,3.91,scattered clouds
213,Bonthe,SL,7.5264,-12.505,79.63,74,97,10.18,overcast clouds
214,Sokolo,ML,14.7328,-6.1219,95.85,12,90,7.83,overcast clouds
215,Gizo,SB,-8.103,156.8419,82.78,70,100,2.28,overcast clouds
216,Ouanaminthe,HT,19.55,-71.7333,87.64,46,44,17.13,scattered clouds
217,Liverpool,GB,53.4106,-2.9779,51.66,65,0,5.01,clear sky
218,Riverton,US,40.5219,-111.9391,43.86,52,0,16.11,clear sky
219,Lata,PT,40.1629,-8.3327,52.14,77,100,3.2,overcast clouds
220,Tura,IN,25.5198,90.2201,78.08,45,98,4.25,overcast clouds
221,Aitape,PG,-3.1374,142.3475,77.74,84,100,3.69,overcast clouds
222,Payo,ID,-3.7508,103.6372,72.45,75,100,2.46,overcast clouds
223,Torbay,CA,47.6666,-52.7314,36.28,98,100,6.91,snow
224,Sistranda,NO,63.7256,8.834,40.96,73,0,8.12,clear sky
225,Buchanan,LR,5.8808,-10.0467,80.19,84,15,8.93,few clouds
226,Devonport,AU,-41.1667,146.35,61.99,90,100,1.21,overcast clouds
227,Micheweni,TZ,-4.9667,39.8333,80.11,81,1,6.89,clear sky
228,Saint-Augustin,CA,51.226,-58.6502,31.5,99,100,15.75,snow
229,Chikitigarh,IN,19.2,84.6167,75.92,86,7,4.56,clear sky
230,Ashington,GB,50.9331,-0.3909,54.41,72,0,3.44,clear sky
231,Kijang,KR,35.2442,129.2139,46.13,79,100,5.86,light rain
232,Numan,NG,9.4667,12.0333,89.82,10,100,5.12,overcast clouds
233,Qaanaaq,GL,77.484,-69.3632,-2.76,85,100,8.86,overcast clouds
234,Usinsk,RU,65.9939,57.5281,13.53,97,100,8.86,overcast clouds
235,Tyup,KG,42.7276,78.3648,33.28,67,100,1.95,overcast clouds
236,Nikolayevka,RU,53.1257,47.2041,26.91,84,8,11.16,clear sky
237,Acapulco,MX,16.8634,-99.8901,87.51,42,0,10.36,clear sky
238,Kolokani,ML,13.5728,-8.0339,92.01,13,11,8.93,few clouds
239,Husavik,IS,66.0449,-17.3389,32.13,77,100,4.38,overcast clouds
240,Victoria,HK,22.2855,114.1577,75.94,94,96,13.0,overcast clouds
241,Umiray,PH,15.2206,121.4111,78.78,86,71,5.93,broken clouds
242,Yellowknife,CA,62.456,-114.3525,27.28,92,100,12.66,light snow
243,Isiolo,KE,0.3546,37.5822,72.81,62,3,9.57,clear sky
244,Tairua,NZ,-37.0167,175.85,66.6,95,100,4.52,overcast clouds
245,Turayf,SA,31.6725,38.6637,53.85,76,75,20.71,broken clouds
246,Ust-Tsilma,RU,65.441,52.1498,23.88,92,100,6.78,overcast clouds
247,Kankakee,US,41.15,-87.8667,73.22,42,0,20.71,clear sky
248,Labe,GN,11.3182,-12.2833,81.66,19,88,5.28,overcast clouds
249,Guerrero Negro,MX,27.9769,-114.0611,64.81,59,0,17.13,clear sky
250,Axim,GH,4.8699,-2.2405,81.23,83,57,6.89,broken clouds
251,Labrea,BR,-7.2586,-64.7981,82.4,84,91,1.72,overcast clouds
252,Jumla,NP,29.2747,82.1838,46.54,51,0,3.89,clear sky
253,Constitucion,CL,-35.3333,-72.4167,65.17,64,7,16.08,clear sky
254,Omaruru,NA,-21.4333,15.9333,73.2,64,69,10.36,light rain
255,Bathsheba,BB,13.2167,-59.5167,83.01,65,40,17.27,scattered clouds
256,Ilulissat,GL,69.2167,-51.1,1.42,42,0,5.75,clear sky
257,Bahia Blanca,AR,-38.7196,-62.2724,62.92,52,100,13.22,overcast clouds
258,Cabedelo,BR,-6.9811,-34.8339,84.87,71,58,13.06,moderate rain
259,Lahij,YE,13.1667,44.5833,75.69,43,1,3.78,clear sky
260,Baruun-Urt,MN,46.6806,113.2792,17.6,48,0,8.08,clear sky
261,Kipini,KE,-2.5257,40.5262,79.2,84,0,13.24,clear sky
262,Kotar,IN,24.7167,80.9833,81.23,13,0,4.0,clear sky
263,Fatehpur Sikri,IN,27.1,77.6667,78.53,17,0,2.93,clear sky
264,Along,IN,28.1667,94.7667,63.84,88,51,3.11,broken clouds
265,Severo-Kurilsk,RU,50.6789,156.125,27.43,73,100,27.2,overcast clouds
266,Lukang,TW,24.0567,120.4352,74.07,87,66,3.67,broken clouds
267,Kloulklubed,PW,7.0419,134.2556,79.3,77,100,17.16,overcast clouds
268,Paamiut,GL,61.994,-49.6678,11.14,80,5,5.5,clear sky
269,Carnarvon,AU,-24.8667,113.6333,75.27,78,100,16.11,overcast clouds
270,Oyama,JP,36.3,139.8,49.59,89,100,10.31,moderate rain
271,Sobolevo,RU,54.4299,31.8996,30.74,93,33,5.97,scattered clouds
272,Vanavara,RU,60.34,102.2797,18.95,94,100,8.46,overcast clouds
273,Evensk,RU,61.95,159.2333,30.33,94,100,8.23,snow
274,Tuatapere,NZ,-46.1333,167.6833,50.94,93,64,4.92,broken clouds
275,Muroto,JP,33.2833,134.15,50.9,91,100,21.36,light rain
276,Atuona,PF,-9.8,-139.0333,78.87,79,59,17.25,light rain
277,Havoysund,NO,70.9963,24.6622,35.83,75,100,43.93,light rain
278,Qianan,CN,44.9932,124.0581,23.4,59,0,6.93,clear sky
279,Harnosand,SE,62.6323,17.9379,35.62,90,0,7.31,clear sky
280,Kavaratti,IN,10.5669,72.642,81.93,68,0,12.8,clear sky
281,Belmonte,BR,-15.8631,-38.8828,81.93,69,12,10.16,few clouds
282,Zeya,RU,53.75,127.2667,4.8,98,100,1.86,overcast clouds
283,Hamilton,US,39.1834,-84.5333,72.19,29,0,14.97,clear sky
284,Wagar,SD,16.1525,36.2032,87.58,15,4,7.61,clear sky
285,Ancud,CL,-41.8697,-73.8203,56.23,77,90,14.81,light rain
286,Gusau,NG,12.1628,6.6614,91.69,12,100,7.34,overcast clouds
287,Maldonado,UY,-34.6667,-54.9167,75.22,36,8,16.96,clear sky
288,Sakakah,SA,29.9697,40.2064,60.37,35,100,16.04,overcast clouds
289,Cabo San Lucas,MX,22.8909,-109.9124,80.62,48,100,1.99,overcast clouds
290,Wanaka,NZ,-44.7,169.15,58.1,74,99,1.16,moderate rain
291,Manali,IN,13.1667,80.2667,87.89,86,75,9.1,broken clouds
292,Taoudenni,ML,22.6783,-3.9836,81.25,12,0,10.11,clear sky
293,San Andres,CO,12.5847,-81.7006,86.02,70,20,12.66,few clouds
294,Los Llanos De Aridane,ES,28.6585,-17.9182,60.55,72,75,8.05,broken clouds
295,Tromso,NO,69.6496,18.957,37.42,56,75,17.27,broken clouds
296,Dunedin,NZ,-45.8742,170.5036,58.8,89,100,8.01,overcast clouds
297,Aswan,EG,24.0934,32.907,73.45,18,0,14.56,clear sky
298,Huarmey,PE,-10.0681,-78.1522,75.67,72,24,12.46,few clouds
299,Palmer,US,42.1584,-72.3287,58.37,29,40,26.46,scattered clouds
300,Portland,US,45.5234,-122.6762,47.61,93,100,6.91,light rain
301,Darlawn,IN,24.0167,92.9,60.03,39,90,3.31,overcast clouds
302,Zavetnoye,RU,47.1194,43.8903,35.94,83,98,12.59,overcast clouds
303,Port-Cartier,CA,50.0334,-66.8654,37.62,88,98,10.38,overcast clouds
304,Sawakin,SD,19.1059,37.3321,74.01,62,0,2.75,clear sky
305,Mackay,AU,-21.15,149.2,69.67,94,69,6.91,broken clouds
306,Alibag,IN,18.6411,72.8792,84.27,70,3,9.55,clear sky
307,Dubna,RU,56.7333,37.1667,28.8,98,21,1.7,few clouds
308,Muravlenko,RU,63.7898,74.523,3.78,99,78,11.34,broken clouds
309,Moron,AR,-34.6534,-58.6198,71.98,59,59,10.27,broken clouds
310,Raymond Terrace,AU,-32.75,151.75,63.95,100,0,5.75,clear sky
311,Toktogul,KG,41.8708,72.9402,39.25,98,100,0.96,overcast clouds
312,Luderitz,NA,-26.6481,15.1594,76.14,61,0,14.88,clear sky
313,General Roca,AR,-39.0333,-67.5833,78.62,23,6,16.06,clear sky
314,Port Lincoln,AU,-34.7333,135.8667,64.89,83,100,4.41,overcast clouds
315,Aksarka,RU,66.5606,67.7975,-9.11,100,91,3.09,overcast clouds
316,Kozmodemyansk,RU,56.3367,46.5711,25.27,89,10,3.96,clear sky
317,Nishihara,JP,26.1842,127.7558,71.65,97,75,19.57,broken clouds
318,Iqaluit,CA,63.7506,-68.5145,2.93,71,75,3.44,broken clouds
319,Ambilobe,MG,-13.2,49.05,75.42,94,57,2.24,broken clouds
320,Svetlaya,RU,46.5389,138.3297,19.51,76,95,9.46,overcast clouds
321,Pacific Grove,US,36.6177,-121.9166,65.8,73,0,11.01,clear sky
322,Zaraza,VE,9.3503,-65.3245,94.93,31,100,5.12,overcast clouds
323,Yanam,IN,16.7333,82.2167,79.3,92,96,4.36,overcast clouds
324,Kawalu,ID,-7.3817,108.2082,71.98,90,100,2.84,overcast clouds
325,Saint-Pierre,RE,-21.3393,55.4781,80.28,87,100,16.11,overcast clouds
326,Mormugao,IN,15.4,73.8,81.66,74,40,4.61,scattered clouds
327,Katsuura,JP,35.1333,140.3,52.41,72,100,11.81,light rain
328,El Vigia,VE,8.6219,-71.6506,87.84,60,89,1.63,overcast clouds
329,San Cristobal,VE,7.7669,-72.225,77.18,48,37,5.99,scattered clouds
330,Mankapur,IN,27.0333,82.2333,77.31,19,0,8.5,clear sky
331,Leningradskiy,RU,69.3833,178.4167,2.8,88,99,7.36,overcast clouds
332,Ciudad Bolivar,VE,8.1222,-63.5497,93.61,30,93,8.43,overcast clouds
333,Mubi,NG,10.2676,13.2644,88.23,7,100,3.85,overcast clouds
334,Te Anau,NZ,-45.4167,167.7167,50.76,91,78,0.96,light rain
335,Faratsiho,MG,-19.4,46.95,58.23,96,100,3.96,overcast clouds
336,Kenai,US,60.5544,-151.2583,27.03,86,0,0.0,clear sky
337,Beringovskiy,RU,63.05,179.3167,23.7,94,100,12.73,overcast clouds
338,Rusera,IN,25.75,86.0333,79.65,20,6,2.04,clear sky
339,Cedar Rapids,US,42.0083,-91.6441,74.88,30,0,19.57,clear sky
340,High Point,US,35.9557,-80.0053,69.35,31,0,3.0,clear sky
341,Cayenne,GF,4.9333,-52.3333,84.24,1,75,10.36,broken clouds
342,Bandar-E Lengeh,IR,26.5579,54.8807,71.71,73,3,4.61,clear sky
343,Nagpandayan,PH,15.5997,120.766,74.75,86,100,3.71,overcast clouds
344,Nuevo Progreso,MX,23.1667,-97.95,84.88,50,5,3.0,clear sky
345,Nizwa,OM,22.9333,57.5333,71.89,30,0,7.36,clear sky
346,Cairns,AU,-16.9167,145.7667,75.15,90,14,3.44,few clouds
347,Katy,US,29.7858,-95.8244,76.75,84,60,23.02,haze
348,Mikhaylovka,RU,50.06,43.2379,36.79,87,11,9.73,few clouds
349,Plaster Rock,CA,46.9065,-67.39,36.12,94,100,12.75,light snow
350,Ayan,RU,56.45,138.1667,9.41,74,1,11.27,clear sky
351,Ukiah,US,39.1502,-123.2078,69.17,41,0,6.91,clear sky
352,Lagoa,PT,39.05,-27.9833,56.73,62,100,26.96,overcast clouds
353,Puerto Madero,MX,14.7208,-92.4215,85.62,62,3,12.1,clear sky
354,Coos Bay,US,43.3665,-124.2179,51.15,100,100,9.22,mist
355,Leamington,CA,42.0549,-82.6062,58.98,81,81,3.0,broken clouds
356,Ouagadougou,BF,12.3642,-1.5383,100.53,15,49,6.91,scattered clouds
357,Thinadhoo,MV,0.5333,72.9333,83.68,73,100,16.28,overcast clouds
358,Gunnedah,AU,-30.9833,150.25,61.66,72,0,4.54,clear sky
359,Lorengau,PG,-2.0226,147.2712,80.44,78,24,1.79,few clouds
360,Okato,NZ,-39.2,173.8833,64.9,86,100,9.93,overcast clouds
361,Genhe,CN,50.7833,121.5167,-3.17,100,90,3.24,overcast clouds
362,Pandan,PH,14.0453,124.1694,78.75,85,100,7.74,overcast clouds
363,Puerto Baquerizo Moreno,EC,-0.9,-89.6,83.39,70,40,9.22,scattered clouds
364,Birakan,RU,49.0167,131.7,1.44,100,93,2.62,overcast clouds
365,Nueva Guinea,NI,11.6876,-84.4562,87.39,47,100,16.78,overcast clouds
366,Upington,ZA,-28.4478,21.2561,75.58,57,20,11.5,few clouds
367,Torit,SS,4.4133,32.5678,84.61,44,20,5.64,few clouds
368,Goundam,ML,16.4145,-3.6708,89.19,11,25,11.01,scattered clouds
369,Nantucket,US,41.2835,-70.0995,55.51,60,0,24.16,clear sky
370,Madaoua,NE,14.073,5.96,88.38,14,95,4.07,overcast clouds
371,Bacolod,PH,10.6667,122.95,79.39,79,98,5.91,overcast clouds
372,Fairbanks,US,64.8378,-147.7164,4.24,65,20,5.75,few clouds
373,Chimbote,PE,-9.0853,-78.5783,74.98,71,54,11.56,broken clouds
374,Hyeres,FR,43.1167,6.1167,53.73,44,0,17.27,clear sky
375,Segovia,ES,41.1667,-4.0,45.43,89,100,11.01,light rain
376,Paramonga,PE,-10.6667,-77.8333,74.16,74,28,11.14,scattered clouds
377,Pietarsaari,FI,63.65,22.6833,37.53,92,0,7.47,clear sky
378,Alexandria,EG,31.2156,29.9553,57.16,54,40,9.22,scattered clouds
379,Aksehir,TR,38.3575,31.4164,25.38,71,79,4.14,broken clouds
380,Guadalupe Y Calvo,MX,26.1,-106.9667,57.2,15,0,16.69,clear sky
381,Kutum,SD,14.2,24.6667,75.87,8,75,6.85,broken clouds
382,Akyab,MM,20.15,92.9,76.53,80,39,1.28,scattered clouds
383,Santa Barbara,US,34.7333,-120.0343,71.82,28,0,5.75,clear sky
384,Kaeo,NZ,-35.1,173.7833,65.32,96,14,8.05,few clouds
385,Durusu,TR,41.3053,28.6767,42.84,75,40,15.01,scattered clouds
386,Finsterwalde,DE,51.6333,13.7167,48.52,49,0,7.11,clear sky
387,Miranda,CO,3.2499,-76.2281,82.53,70,100,2.33,overcast clouds
388,Talnakh,RU,69.4865,88.3972,-9.8,93,25,4.21,scattered clouds
389,Nizhniy Mamon,RU,50.1937,40.5083,35.37,88,100,12.64,overcast clouds
390,Narsaq,GL,60.9167,-46.05,19.62,65,0,3.02,clear sky
391,George Town,MY,5.4112,100.3354,78.75,87,20,2.3,few clouds
392,Puerto Leguizamo,CO,-0.1934,-74.7819,73.17,97,100,2.21,overcast clouds
393,Lewistown,US,40.5992,-77.5714,64.62,33,0,12.66,clear sky
394,Edd,ER,13.9297,41.6925,79.93,73,44,9.95,scattered clouds
395,Belyy Yar,RU,53.6039,91.3903,16.86,72,62,2.24,smoke
396,Oyonnax,FR,46.2592,5.6573,51.93,81,8,0.87,clear sky
397,Almeirim,BR,-1.5233,-52.5817,78.42,94,100,3.94,overcast clouds
398,North Battleford,CA,52.7834,-108.2847,37.4,64,0,16.11,clear sky
399,Russell,US,32.3502,-85.1999,75.11,23,0,8.05,clear sky
400,Bat Khela,PK,34.6167,71.9714,66.83,36,0,7.83,clear sky
401,Cascavel,BR,-24.9558,-53.4553,78.4,50,0,9.22,clear sky
402,Valparaiso,CL,-33.0393,-71.6273,76.64,58,0,16.11,clear sky
403,Lumberton,US,34.6182,-79.0086,72.32,28,0,0.51,clear sky
404,Poum,NC,-20.2333,164.0167,79.84,78,100,16.58,overcast clouds
405,Mahanoro,MG,-19.9,48.8,73.0,80,100,4.7,overcast clouds
406,Rocha,UY,-34.4833,-54.3333,73.09,44,0,17.45,clear sky
407,Alice Springs,AU,-23.7,133.8833,69.22,32,0,5.75,clear sky
408,Lokot,RU,52.565,34.5776,33.26,90,6,7.85,clear sky
409,Vostok,RU,46.4856,135.8833,14.52,96,100,3.76,overcast clouds
410,Bud,US,39.447,-86.1758,71.91,27,95,12.5,overcast clouds
411,Maksatikha,RU,57.797,35.8825,32.81,95,15,4.63,few clouds
412,Marawi,PH,7.9986,124.2928,68.38,93,100,2.17,overcast clouds
413,Sillod,IN,20.3,75.65,81.72,18,0,8.32,clear sky
414,Chiang Rai,TH,19.9167,99.9167,75.18,98,0,0.0,clear sky
415,Sokoni,TZ,-6.4333,39.55,81.88,79,97,10.85,overcast clouds
416,Pinega,RU,64.7001,43.3936,34.47,90,100,11.23,overcast clouds
417,San-Pedro,CI,4.7485,-6.6363,79.83,81,99,7.09,overcast clouds
418,Nacala,MZ,-14.5428,40.6728,74.1,95,100,7.18,overcast clouds
419,Killybegs,IE,54.6333,-8.45,56.91,82,53,11.56,broken clouds
420,Praia Da Vitoria,PT,38.7333,-27.0667,59.25,72,40,17.6,scattered clouds
421,Russkaya Polyana,UA,49.417,31.9201,41.11,84,0,8.81,clear sky
422,San Quintin,MX,30.4833,-115.95,62.65,66,6,10.0,clear sky
423,Sola,VU,-13.8833,167.55,81.59,79,100,10.85,overcast clouds
424,Medea,DZ,36.2642,2.7539,48.15,87,100,9.24,overcast clouds
425,Villa Carlos Paz,AR,-31.4241,-64.4978,72.9,37,33,11.01,scattered clouds
426,Pangai,TO,-19.8,-174.35,82.26,81,100,15.97,overcast clouds
427,Ketchikan,US,55.3422,-131.6461,45.07,87,100,13.8,light rain
428,San Pedro,PH,14.35,121.0167,81.63,71,20,3.44,few clouds
429,Mabaruma,GY,8.2,-59.7833,84.2,74,75,4.61,broken clouds
430,Margate,GB,51.3813,1.3862,51.31,70,36,1.99,scattered clouds
431,Yerbogachen,RU,61.2767,108.0108,14.72,95,99,7.54,overcast clouds
432,Xining,CN,36.6167,101.7667,35.46,69,100,2.66,overcast clouds
433,Lac-Megantic,CA,45.5834,-70.8823,30.56,83,100,14.63,light snow
434,Angoche,MZ,-16.2325,39.9086,75.72,83,77,9.62,broken clouds
435,Yendi,GH,9.4427,-0.0099,95.27,27,100,4.47,overcast clouds
436,Aygut,AM,40.6833,45.1729,14.97,95,100,2.66,overcast clouds
437,Namibe,AO,-15.1961,12.1522,75.18,79,100,3.94,overcast clouds
438,Vetluzhskiy,RU,58.3902,45.4654,26.04,93,22,3.24,few clouds
439,Port Blair,IN,11.6667,92.75,75.24,94,75,1.14,mist
440,Talcahuano,CL,-36.7167,-73.1167,60.89,73,0,11.05,clear sky
441,Alvorada,BR,-12.48,-49.1247,88.75,57,91,4.27,overcast clouds
442,Remscheid,DE,51.1833,7.2,57.36,64,28,6.11,scattered clouds
443,Yeppoon,AU,-23.1333,150.7333,71.38,70,91,7.74,overcast clouds
444,Verkhoyansk,RU,67.5447,133.385,-27.31,100,98,3.24,overcast clouds
445,Lakatoro,VU,-16.0999,167.4164,77.92,87,100,5.84,heavy intensity rain
446,Trairi,BR,-3.2778,-39.2689,82.44,76,18,9.89,heavy intensity rain
447,Suntar,RU,62.1444,117.6319,10.89,98,100,1.9,overcast clouds
448,Macamic,CA,48.7502,-78.9996,27.36,65,100,14.18,overcast clouds
449,Maceio,BR,-9.6658,-35.7353,76.44,88,75,11.5,moderate rain
450,Kavieng,PG,-2.5744,150.7967,80.82,80,99,6.6,light rain
451,Cabra,ES,37.4725,-4.4421,57.18,77,11,4.81,few clouds
452,Hlobyne,UA,49.3878,33.2596,41.09,87,0,9.98,clear sky
453,Winnemucca,US,40.973,-117.7357,46.45,36,0,5.75,clear sky
454,Vestmannaeyjar,IS,63.4427,-20.2734,43.79,93,75,25.32,light rain
455,Harper,LR,4.375,-7.7169,80.4,80,50,8.39,scattered clouds
456,Calama,CL,-22.4667,-68.9333,75.24,18,5,16.24,clear sky
457,Spring Hill,US,28.4769,-82.5255,83.98,36,0,13.8,clear sky
458,Caluquembe,AO,-13.7833,14.6833,62.24,87,88,3.47,light rain
459,Kyren,RU,51.6828,102.1408,10.58,83,17,2.28,few clouds
460,Osinovo,RU,55.8809,48.881,28.49,90,6,6.31,clear sky
461,Novoaleksandrovsk,RU,45.4948,41.2207,36.73,61,11,3.49,few clouds
462,Dzhebariki-Khaya,RU,62.2167,135.8,-4.45,100,100,1.95,overcast clouds
463,Kirakira,SB,-10.4544,161.9205,79.41,82,58,4.03,broken clouds
464,Sinnamary,GF,5.3833,-52.95,79.07,83,64,10.58,broken clouds
465,The Valley,AI,18.217,-63.0578,84.06,65,20,12.66,few clouds
466,Nigde,TR,37.8333,34.75,10.67,88,20,5.32,few clouds
467,Bonavista,CA,48.6499,-53.1147,31.96,97,100,21.85,light snow
468,Hibbing,US,47.4272,-92.9377,45.75,36,100,14.97,overcast clouds
469,Waipawa,NZ,-41.4122,175.5153,60.19,98,98,4.94,overcast clouds
470,Santa Fe,AR,-31.6333,-60.7,79.02,49,1,4.0,clear sky
471,Fort Dodge,US,42.4975,-94.168,72.01,26,0,21.85,clear sky
472,Charleville-Mezieres,FR,49.7667,4.7167,49.96,77,7,4.05,clear sky
473,Zyryanka,RU,65.75,150.85,4.46,94,100,20.51,light snow
474,Trelew,AR,-43.249,-65.3051,74.12,29,100,12.33,overcast clouds
475,Lerwick,GB,60.1545,-1.1494,42.8,84,11,13.29,few clouds
476,Carora,VE,10.1755,-70.0827,91.2,36,76,16.4,broken clouds
477,Shu,KZ,43.5983,73.7614,34.83,99,100,5.66,snow
478,Dalbandin,PK,28.8947,64.4101,71.8,11,0,6.08,clear sky
479,Luanda,AO,-8.8368,13.2343,82.4,78,40,6.91,scattered clouds
480,General Delgado,PY,-27.1667,-56.5167,93.85,28,0,8.9,clear sky
481,Hoshangabad,IN,22.75,77.7167,82.62,16,2,5.61,clear sky
482,Wembley,AU,-31.9333,115.8,65.05,62,0,12.66,clear sky
483,Smithers,CA,54.7804,-127.1743,37.72,81,75,4.61,broken clouds
484,Salinopolis,BR,-0.6136,-47.3561,78.82,84,100,6.69,overcast clouds
485,Karachi,PK,24.9056,67.0822,73.22,78,0,6.91,clear sky
486,Itarema,BR,-2.9248,-39.9167,82.85,76,73,12.97,broken clouds
487,Beidao,CN,34.5686,105.8933,43.79,82,100,4.41,overcast clouds
488,Norman Wells,CA,65.282,-126.8329,-2.16,71,40,16.11,scattered clouds
489,Bahia Honda,CU,22.9036,-83.1592,80.46,68,40,15.88,scattered clouds
490,Argir,FO,61.9959,-6.7715,43.77,87,100,14.05,overcast clouds
491,Hirara,JP,24.8,125.2833,73.02,95,3,15.21,clear sky
492,Caravelas,BR,-17.7125,-39.2481,81.34,70,2,9.98,clear sky
493,Zainsk,RU,55.3195,52.0694,31.19,88,10,8.88,clear sky
494,Garh Maharaja,PK,30.8339,71.9053,76.91,17,0,7.83,clear sky
495,Saint-Joseph,RE,-21.3667,55.6167,79.18,88,97,12.28,light rain
496,Keffi,NG,8.8486,7.8736,89.91,23,98,3.0,overcast clouds
497,Chalmette,US,29.9427,-89.9634,78.01,53,0,24.16,clear sky
498,Evanston,US,42.0411,-87.6901,73.92,35,0,12.66,clear sky
499,Dalby,AU,-27.1833,151.2667,60.98,93,0,2.24,clear sky
500,Kasongo,CD,-4.45,26.6667,71.35,97,100,3.22,moderate rain
501,Pangnirtung,CA,66.1451,-65.7125,-7.6,59,75,2.3,broken clouds
502,Simao,CN,22.7886,100.9748,60.64,94,47,2.62,scattered clouds
503,Nago,JP,26.5881,127.9761,72.45,88,96,14.83,overcast clouds
504,Tecoanapa,MX,16.5167,-98.75,87.22,43,0,12.39,clear sky
505,Chochola,MX,20.75,-89.8333,91.99,27,0,8.52,clear sky
506,Yola,NG,9.2,12.4833,89.92,9,100,4.25,overcast clouds
507,Lluta,PE,-16.0147,-72.0142,55.18,73,100,9.24,overcast clouds
508,Salta,AR,-24.7859,-65.4117,72.19,76,75,5.75,broken clouds
509,Maryville,US,35.7565,-83.9705,72.12,28,20,4.0,few clouds
510,Aykhal,RU,66.0,111.5,-3.68,100,100,6.15,overcast clouds
511,Brae,GB,60.3964,-1.353,43.02,86,14,12.39,few clouds
512,Les Cayes,HT,18.2,-73.75,82.72,64,60,13.58,broken clouds
513,Pawa,PH,13.1747,123.7328,77.4,89,100,5.39,overcast clouds
514,Trinidad,BO,-14.8333,-64.9,87.78,62,20,3.44,few clouds
515,Ossora,RU,59.2353,163.0719,31.91,98,100,14.34,snow
516,Mezen,RU,65.8522,44.24,33.8,87,100,10.76,overcast clouds
517,Salamiyah,SY,35.0113,37.0532,40.62,61,87,5.75,overcast clouds
518,Puerto Colombia,CO,10.9878,-74.9547,87.89,75,100,24.02,overcast clouds
519,Gold Coast,AU,-28.0,153.4333,68.04,90,0,4.61,clear sky
520,Ponta Delgada,PT,37.7333,-25.6667,61.5,55,20,20.71,few clouds
521,Kyra,RU,49.5776,111.9753,1.17,98,36,4.12,scattered clouds
522,Richards Bay,ZA,-28.783,32.0377,69.93,69,100,5.88,overcast clouds
523,Sao Felix Do Xingu,BR,-6.6447,-51.995,80.11,88,100,1.25,moderate rain
524,Dwarka,IN,22.2394,68.9678,76.26,74,5,15.79,clear sky
525,Banda Aceh,ID,5.5577,95.3222,80.19,77,100,12.26,overcast clouds
526,Staryy Nadym,RU,65.6118,72.6842,-5.39,100,46,8.52,scattered clouds
527,Luau,AO,-10.7073,22.2247,63.05,95,100,1.25,overcast clouds
528,Port Hardy,CA,50.6996,-127.4199,46.58,81,100,17.27,overcast clouds
529,Racine,US,42.7495,-88.0751,71.28,42,31,8.05,scattered clouds
530,Vila,PT,42.0304,-8.1588,49.08,83,16,2.77,few clouds
531,Nadym,RU,65.5333,72.5167,-4.97,100,54,8.84,broken clouds
532,Saint Anthony,US,45.0205,-93.218,66.09,47,0,14.97,clear sky
533,George,ZA,-33.963,22.4617,63.95,100,75,2.3,broken clouds
534,Octeville,FR,49.6261,-1.6435,51.58,81,0,9.22,clear sky
535,Rio Gallegos,AR,-51.6226,-69.2181,57.25,58,75,10.36,broken clouds
536,Ayr,GB,55.4627,-4.6339,50.31,79,30,4.34,scattered clouds
537,Esqueda,MX,30.7167,-109.5833,58.75,23,45,19.1,scattered clouds
538,Borovsk,RU,55.2064,36.4861,30.78,96,34,3.87,scattered clouds
539,Hofn,IS,64.2539,-15.2082,37.42,93,100,8.05,light intensity drizzle rain
540,Cap Malheureux,MU,-19.9842,57.6142,79.47,88,38,1.01,scattered clouds
541,Kapoeta,SS,4.7717,33.5903,84.94,40,3,10.22,clear sky
542,Karatau,KZ,43.1667,70.4667,33.57,83,100,6.62,overcast clouds
543,Boddam,GB,57.4667,-1.7833,41.43,87,0,9.84,clear sky
544,Lethem,GY,3.3803,-59.7968,93.58,36,100,9.01,overcast clouds
545,Van,TR,38.4924,43.3831,29.55,74,75,3.44,broken clouds
546,Syracuse,IT,37.0881,15.2792,49.37,55,100,8.43,overcast clouds
547,Meihekou,CN,42.5272,125.6753,23.38,80,3,5.82,clear sky
548,Rathenow,DE,52.6066,12.337,47.1,52,0,6.53,clear sky
549,Kembe,CF,4.6228,21.8865,81.3,36,4,2.77,clear sky
550,Pirmasens,DE,49.2015,7.6053,54.63,68,0,5.73,clear sky
551,Sovetsk,RU,55.0839,21.8785,44.69,58,0,0.2,clear sky
552,Bayan,CN,46.0833,127.4,23.97,61,2,8.57,clear sky
553,Sirvintos,LT,55.05,24.95,46.56,68,0,3.18,clear sky
554,Teguldet,RU,57.3064,88.1667,19.94,90,100,9.4,overcast clouds
555,Mhango,TZ,-3.2833,32.85,65.52,90,100,6.29,light rain
556,Ust-Kut,RU,56.7938,105.7672,8.55,99,100,3.38,overcast clouds
557,Cardoso,BR,-20.0819,-49.9142,79.16,70,87,11.16,overcast clouds
558,Sargatskoye,RU,55.6101,73.4972,17.78,96,100,7.11,overcast clouds
559,Chichimila,MX,20.6167,-88.2167,96.06,26,1,8.79,clear sky
560,Salalah,OM,17.0151,54.0924,73.6,43,6,2.46,clear sky
561,Adrar,MR,20.5022,-10.0711,77.79,11,0,3.31,clear sky
562,Broken Hill,AU,-31.95,141.4333,69.51,60,100,3.44,overcast clouds
563,Saint-Ambroise,CA,48.5501,-71.3324,31.59,64,100,18.41,light snow
564,Coahuayana,MX,18.7333,-103.6833,90.34,25,44,7.74,scattered clouds
565,Sawtell,AU,-30.3833,153.1,60.19,94,0,3.44,clear sky
566,Peachland,CA,49.7665,-119.7357,51.67,55,88,4.0,overcast clouds
567,Japura,ID,-0.3167,102.35,76.14,91,100,1.32,overcast clouds
568,Duiwelskloof,ZA,-23.6934,30.14,61.81,64,2,1.86,clear sky
569,Hanyang,CN,32.1371,105.5126,47.41,86,100,4.05,overcast clouds
570,Norsup,VU,-16.0667,167.3833,78.19,87,100,5.95,heavy intensity rain
571,Acolla,PE,-11.7319,-75.5463,56.28,66,86,4.12,overcast clouds
572,Port Augusta,AU,-32.5,137.7667,72.72,59,100,3.87,overcast clouds
573,Daru,PG,-9.0763,143.2092,79.57,86,100,3.04,moderate rain
574,Sturgeon Falls,CA,46.3646,-79.9326,39.88,55,9,10.56,clear sky
575,Amahai,ID,-3.3333,128.9167,77.81,84,99,3.53,overcast clouds
576,Flinders,AU,-34.5833,150.8552,60.39,89,14,4.0,few clouds
577,Baracoa,CU,20.3467,-74.4958,81.27,65,35,12.21,scattered clouds
578,Alta Floresta,BR,-9.8756,-56.0861,87.62,66,20,2.3,few clouds
579,Chokwe,MZ,-24.5333,32.9833,68.29,79,0,6.8,clear sky
580,Dandong,CN,40.1292,124.3947,31.37,68,1,6.15,clear sky
581,Krasnovishersk,RU,60.4078,57.082,22.03,89,100,8.19,overcast clouds
582,Meulaboh,ID,4.1363,96.1285,76.84,87,100,4.18,overcast clouds
583,Chara,RU,56.9064,118.2631,3.2,78,27,2.19,scattered clouds
584,Progreso,MX,21.2833,-89.6667,92.1,54,0,15.23,clear sky
585,Tiznit,MA,29.5833,-9.5,55.99,74,100,7.61,overcast clouds
586,Mombetsu,JP,44.3525,143.3525,28.54,71,51,10.92,broken clouds
587,Zhezkazgan,KZ,47.8043,67.7144,21.94,74,100,18.16,overcast clouds
588,Lac Du Bonnet,CA,50.2536,-96.0612,40.73,82,100,11.83,overcast clouds
589,Ohara,JP,35.25,140.3833,52.05,70,100,8.19,moderate rain
590,Awbari,LY,26.5921,12.7805,59.94,37,0,13.31,clear sky
591,Osterhofen,DE,48.7,13.0167,45.5,37,0,5.39,clear sky
592,Labuan,MY,5.2767,115.2417,77.36,94,20,0.0,few clouds
593,Visby,SE,57.6409,18.296,37.62,56,0,5.75,clear sky
594,Lodja,CD,-3.4833,23.4333,70.79,94,77,2.77,broken clouds
595,Prince Rupert,CA,54.3161,-130.3201,46.49,81,100,20.71,overcast clouds
596,Matagami,CA,49.7502,-77.6328,21.31,68,100,18.41,overcast clouds
597,Banff,CA,51.1762,-115.5698,40.23,41,63,6.91,broken clouds
598,Petatlan,MX,17.5167,-101.2667,92.66,25,0,7.52,clear sky
599,Hobyo,SO,5.3505,48.5268,79.07,72,82,7.72,broken clouds
600,Harlingen,US,26.1906,-97.6961,84.11,46,11,34.63,few clouds
601,Katherine,AU,-14.4667,132.2667,79.12,73,100,3.44,overcast clouds
602,La Romana,DO,18.4273,-68.9728,88.16,48,40,11.5,scattered clouds
603,Jieshi,CN,22.8134,115.8257,73.94,91,100,6.96,overcast clouds
604,Chimbarongo,CL,-34.7,-71.05,80.73,15,1,6.38,clear sky
605,Mesimerion,GR,40.412,23.0059,45.88,50,0,3.44,clear sky
606,Gari,RU,59.4307,62.3497,24.15,91,100,12.35,overcast clouds
607,Urucara,BR,-2.5364,-57.76,80.28,90,83,1.41,light rain
608,Taltal,CL,-25.4,-70.4833,69.15,67,25,7.67,scattered clouds
609,Takoradi,GH,4.8845,-1.7554,81.81,81,36,9.28,scattered clouds
610,Barao De Melgaco,BR,-16.1944,-55.9675,90.7,51,96,3.33,overcast clouds
611,Banyo,CM,6.75,11.8167,78.15,30,95,6.46,overcast clouds
612,Faya,SA,18.3851,42.4509,62.71,53,0,4.21,clear sky
613,Gushikawa,JP,26.3544,127.8686,71.6,91,75,16.11,broken clouds
614,Melita,CA,49.2681,-100.9967,37.54,74,100,9.4,overcast clouds
615,Rio Grande,BR,-32.035,-52.0986,75.31,58,97,18.68,overcast clouds
616,Dondo,MZ,-19.6094,34.7431,78.31,83,34,5.41,scattered clouds
617,Tocopilla,CL,-22.092,-70.1979,72.28,68,23,10.45,few clouds
618,Charyshskoye,RU,51.3978,83.5598,16.41,86,100,5.55,overcast clouds
619,Naze,JP,28.3667,129.4833,67.12,86,100,21.97,overcast clouds
620,Sofiyivka,UA,48.0493,33.8746,40.44,86,0,13.22,clear sky
621,Hambantota,LK,6.1241,81.1185,80.94,94,20,3.44,few clouds
622,Pasighat,IN,28.0667,95.3333,74.7,53,80,4.54,broken clouds
623,Farap,TM,39.1704,63.6116,46.4,61,0,6.91,clear sky
624,Fairmount,US,43.0473,-76.2385,53.33,50,19,11.01,few clouds
625,Gaggenau,DE,48.8,8.3333,52.93,57,0,6.91,clear sky
626,Kidal,ML,18.4411,1.4078,84.69,7,1,11.86,clear sky
627,Wanlaweyn,SO,2.6185,44.8938,78.75,74,14,15.39,few clouds
628,Shingu,JP,33.7333,135.9833,46.76,94,100,4.68,moderate rain
629,Mahibadhoo,MV,3.7833,72.9667,82.98,70,0,14.61,clear sky
630,Coihaique,CL,-45.5752,-72.0662,65.01,67,100,9.22,overcast clouds
631,Teluknaga,ID,-6.0989,106.6381,81.63,83,20,11.5,few clouds
632,Walvis Bay,NA,-22.9575,14.5053,68.09,73,34,11.27,light rain
633,Sitka,US,57.0531,-135.33,39.78,96,100,6.49,light rain
634,Atbasar,KZ,51.8,68.3333,18.66,94,100,13.29,overcast clouds
635,Gualaceo,EC,-2.9,-78.7833,69.46,91,99,3.69,light rain
636,Srandakan,ID,-7.9386,110.2506,77.32,88,100,4.97,overcast clouds
637,Peruibe,BR,-24.32,-46.9983,71.26,87,98,12.15,overcast clouds
638,Ometepec,MX,16.6833,-98.4167,96.55,21,0,9.8,clear sky
639,Yulara,AU,-25.2406,130.9889,73.24,33,0,2.3,clear sky
640,Vanderhoof,CA,54.0166,-124.0198,44.06,61,100,1.57,overcast clouds
641,Roura,GF,4.7263,-52.3274,84.11,70,75,10.36,broken clouds
642,Nenjiang,CN,49.1833,125.2167,3.6,93,8,5.32,clear sky
643,Ropczyce,PL,50.0523,21.6089,45.37,55,0,4.03,clear sky
644,Morro Bay,US,35.3658,-120.8499,74.25,34,75,6.13,broken clouds
645,Ratnagiri,IN,16.9833,73.3,77.11,78,0,0.83,clear sky
646,Ulaangom,MN,49.9811,92.0667,-2.02,73,4,4.97,clear sky
647,Pasaquina,SV,13.5844,-87.8411,102.27,17,68,9.71,broken clouds
648,Anori,BR,-3.7728,-61.6442,76.78,90,99,1.68,overcast clouds
649,Pili,PH,13.5833,123.3,75.16,93,100,3.02,overcast clouds
650,Santa Cruz De La Palma,ES,28.6835,-17.7642,64.54,63,75,8.05,broken clouds
651,Nome,US,64.5011,-165.4064,-4.85,75,5,2.86,clear sky
652,Tadine,NC,-21.55,167.8833,76.05,77,100,8.25,overcast clouds
653,Laurel,US,39.0993,-76.8483,68.77,37,75,11.99,broken clouds
654,Olga,RU,43.7444,135.2892,28.0,70,21,5.03,few clouds
655,Natchitoches,US,31.7668,-93.1335,72.45,60,100,19.57,overcast clouds
656,Alyangula,AU,-13.8483,136.4192,75.07,100,93,0.0,overcast clouds
657,Anloga,GH,5.7947,0.8973,83.48,79,97,14.05,overcast clouds
658,Mezhdurechenskiy,RU,59.6,65.9333,24.87,92,100,12.97,light snow
659,Zhigansk,RU,66.7697,123.3711,-5.53,96,99,4.47,overcast clouds
660,Kargil,IN,34.5667,76.1,16.9,71,1,4.09,clear sky
661,Dinguiraye,GN,11.3,-10.7167,91.49,18,14,1.83,few clouds
662,Honningsvag,NO,70.9821,25.9704,35.35,69,94,49.48,light rain
663,Talagang,PK,32.9297,72.4158,71.74,38,0,2.53,clear sky
664,Haines Junction,CA,60.7522,-137.5108,22.95,74,99,4.61,overcast clouds
665,Erenhot,CN,43.6475,111.9767,27.3,28,30,7.29,scattered clouds
666,Opuwo,NA,-18.0607,13.84,75.61,60,85,7.52,overcast clouds
667,Tatawin,TN,32.9297,10.4518,53.13,57,60,14.72,broken clouds
668,Crotone,IT,39.0851,17.1178,47.19,68,78,14.07,broken clouds
669,Calabozo,VE,8.9242,-67.4293,91.81,37,93,7.02,overcast clouds
670,Raudeberg,NO,61.9875,5.1352,43.47,54,4,3.44,clear sky
671,Graaff-Reinet,ZA,-32.2522,24.5308,74.01,31,0,5.5,clear sky
672,Saquarema,BR,-22.92,-42.5103,78.94,76,100,8.68,overcast clouds
673,Vakhrushev,RU,48.9833,142.9667,20.41,68,1,10.38,clear sky
674,Niquero,CU,20.0431,-77.5828,85.17,58,18,5.06,few clouds
675,Vila Franca Do Campo,PT,37.7167,-25.4333,60.19,62,100,18.37,overcast clouds
676,Baykit,RU,61.67,96.37,18.12,95,100,5.28,overcast clouds
677,Bamiantong,CN,44.9333,130.5333,11.26,90,5,4.63,clear sky
678,Aqtobe,KZ,50.2797,57.2072,19.49,79,0,11.18,clear sky
679,Lagunas,PE,-5.2269,-75.6753,80.26,82,89,3.36,overcast clouds
680,Namie,JP,37.4833,141.0,38.71,92,100,6.08,overcast clouds
681,Griffith,US,41.5284,-87.4237,74.14,47,0,18.41,clear sky
682,Tynda,RU,55.1667,124.7167,2.37,95,96,4.5,overcast clouds
683,Tselinnoye,RU,53.0833,85.6667,15.13,90,100,6.62,overcast clouds
684,Tartus,SY,34.889,35.8866,50.0,52,94,13.4,overcast clouds
685,Mareeba,AU,-17.0,145.4333,70.52,94,13,1.86,few clouds
686,Banswada,IN,18.3833,77.8833,85.01,29,42,6.46,scattered clouds
687,Desbiens,CA,48.4178,-71.9495,29.05,78,100,17.69,overcast clouds
688,Sisimiut,GL,66.9395,-53.6735,1.24,82,10,3.24,clear sky
689,Garowe,SO,8.4054,48.4845,75.0,59,0,12.44,clear sky
690,Krasnoselkup,RU,65.7,82.4667,-3.86,96,6,9.89,clear sky
691,Linxia,CN,35.6003,103.2064,40.8,79,100,2.73,overcast clouds
692,Dubbo,AU,-32.25,148.6167,60.93,82,8,8.05,clear sky
693,Ballina,AU,-28.8667,153.5667,64.58,94,12,6.91,few clouds
694,Padang,ID,-0.9492,100.3543,77.05,82,90,3.44,overcast clouds
